{
  "28_may": {"name": "28 May", "lat": 40.3795, "lng": 49.8476},
  "ganjlik": {"name": "Gənclik", "lat": 40.4009, "lng": 49.8517},
  "koroglu": {"name": "Koroğlu", "lat": 40.4177, "lng": 49.9189},
  "ahmedli": {"name": "Əhmədli", "lat": 40.3927, "lng": 49.9534},
  "neftchilar": {"name": "Neftçilər", "lat": 40.4093, "lng": 49.9458},
  "20_yanvar": {"name": "20 Yanvar", "lat": 40.4048, "lng": 49.8086},
  "memar_ajemi": {"name": "Memar Əcəmi", "lat": 40.4114, "lng": 49.8257},
  "sahil": {"name": "Sahil", "lat": 40.3708, "lng": 49.8446},
  "icherisheher": {"name": "İçərişəhər", "lat": 40.3667, "lng": 49.8333},
  "dernegul": {"name": "Dərnəgül", "lat": 40.4257, "lng": 49.8581},
  "xirdalan": {"name": "Xırdalan", "lat": 40.4484, "lng": 49.7550},
  "lokbatan": {"name": "Lökbatan", "lat": 40.3251, "lng": 49.7332},
  "hovsan": {"name": "Hövsan", "lat": 40.3660, "lng": 50.0850},
  "bilgeh": {"name": "Bilgəh", "lat": 40.5900, "lng": 50.0900},
  "nardaran": {"name": "Nardaran", "lat": 40.5560, "lng": 50.0050},
  "airport": {"name": "Airport", "lat": 40.4675, "lng": 50.0467}
}
